[
  {
    "nom": "Allemagne",
    "code": "DE",
    "lat": 51.1657,
    "lng": 10.4515,
    "production": 557144,
    "consommation": 511660
  },
  {
    "nom": "Autriche",
    "code": "AT",
    "lat": 47.5162,
    "lng": 14.5501,
    "production": 64227,
    "consommation": 68534
  },
  {
    "nom": "Belgique",
    "code": "BE",
    "lat": 50.8503,
    "lng": 4.3517,
    "production": 94864,
    "consommation": 83413
  },
  {
    "nom": "Bulgarie",
    "code": "BG",
    "lat": 42.7339,
    "lng": 25.4858,
    "production": 41529,
    "consommation": 30321
  },
  {
    "nom": "Chypre",
    "code": "CY",
    "lat": 35.1264,
    "lng": 33.4299,
    "production": 4878,
    "consommation": 4659
  },
  {
    "nom": "Croatie",
    "code": "HR",
    "lat": 45.1,
    "lng": 15.2,
    "production": 14603,
    "consommation": 15932
  },
  {
    "nom": "Danemark",
    "code": "DK",
    "lat": 56.2639,
    "lng": 9.5018,
    "production": 32793,
    "consommation": 38183
  },
  {
    "nom": "Espagne",
    "code": "ES",
    "lat": 40.4637,
    "lng": -3.7492,
    "production": 259404,
    "consommation": 233977
  },
  {
    "nom": "Estonie",
    "code": "EE",
    "lat": 58.5953,
    "lng": 25.0136,
    "production": 6653,
    "consommation": 8842
  },
  {
    "nom": "Finlande",
    "code": "FI",
    "lat": 61.9241,
    "lng": 25.7482,
    "production": 69653,
    "consommation": 83725
  },
  {
    "nom": "France",
    "code": "FR",
    "lat": 46.2276,
    "lng": 2.2137,
    "production": 530418,
    "consommation": 447447
  },
  {
    "nom": "Grèce",
    "code": "GR",
    "lat": 39.0742,
    "lng": 21.8243,
    "production": 52474,
    "consommation": 52140
  },
  {
    "nom": "Hongrie",
    "code": "HU",
    "lat": 47.1625,
    "lng": 19.5033,
    "production": 34191,
    "consommation": 43914
  },
  {
    "nom": "Irlande",
    "code": "IE",
    "lat": 53.1424,
    "lng": -7.6921,
    "production": 33596,
    "consommation": 32645
  },
  {
    "nom": "Italie",
    "code": "IT",
    "lat": 41.8719,
    "lng": 12.5674,
    "production": 274179,
    "consommation": 299922
  },
  {
    "nom": "Lettonie",
    "code": "LV",
    "lat": 56.8796,
    "lng": 24.6032,
    "production": 5538,
    "consommation": 6917
  },
  {
    "nom": "Lituanie",
    "code": "LT",
    "lat": 55.1694,
    "lng": 23.8813,
    "production": 3704,
    "consommation": 11822
  },
  {
    "nom": "Luxembourg",
    "code": "LU",
    "lat": 49.8153,
    "lng": 6.1296,
    "production": 921,
    "consommation": 6496
  },
  {
    "nom": "Malte",
    "code": "MT",
    "lat": 35.9375,
    "lng": 14.3754,
    "production": 2112,
    "consommation": 2495
  },
  {
    "nom": "Pays-Bas",
    "code": "NL",
    "lat": 52.1326,
    "lng": 5.2913,
    "production": 117440,
    "consommation": 113278
  },
  {
    "nom": "Pologne",
    "code": "PL",
    "lat": 51.9194,
    "lng": 19.1451,
    "production": 166557,
    "consommation": 158194
  },
  {
    "nom": "Portugal",
    "code": "PT",
    "lat": 39.3999,
    "lng": -8.2245,
    "production": 47469,
    "consommation": 47743
  },
  {
    "nom": "République tchèque",
    "code": "CZ",
    "lat": 49.8175,
    "lng": 15.473,
    "production": 76641,
    "consommation": 61915
  },
  {
    "nom": "Roumanie",
    "code": "RO",
    "lat": 45.9432,
    "lng": 24.9668,
    "production": 55019,
    "consommation": 50527
  },
  {
    "nom": "Slovaquie",
    "code": "SK",
    "lat": 48.669,
    "lng": 19.699,
    "production": 27194,
    "consommation": 26103
  },
  {
    "nom": "Slovénie",
    "code": "SI",
    "lat": 46.1512,
    "lng": 14.9955,
    "production": 14852,
    "consommation": 13727
  },
  {
    "nom": "Suède",
    "code": "SE",
    "lat": 60.1282,
    "lng": 18.6435,
    "production": 165267,
    "consommation": 130756
  }
]
